HyperTerminal 1.0 -- HyperTerminal data file
Please do not attempt to modify this file directly.


exV4Canon MF4700 Series UFRII LTHdANSIñà
råœgÍîâîå ïîäêëþ÷åíè
$GNGGK,085149.00,062518,5130.4122475,N,03120.6009800,E,3,15,1.6,EHT141.285,M*5E
$GNGSA,A,3,02,06,12,14,19,24,25,29,31,,,,1.2,0.7,1.0*2B
$GNGSA,A,3,73,74,80,82,83,,,,,,,,1.2,0.7,1.0*27
$GPGSV,3,1,10,02,52,119,50,06,36,058,49,12,75,088,54,14,19,304,46*78
$GPGSV,3,2,10,19,17,057,33,24,31,177,46,25,56,293,54,29,26,235,34*73
$GPGSV,3,3,10,31,14,319,40,32,18,276,43,,,,,,,,*7C
$GLGSV,2,1,06,73,80,148,52,74,43,318,52,80,22,140,37,82,28,039,49*61
$GLGSV,2,2,06,83,81,078,50,84,35,208,34,,,,,,,,*6C
$GAGSV,1,1,03,11,69,117,49,12,29,048,43,24,21,129,,,,,*52
$BDGSV,1,1,04,02,15,120,,05,27,146,40,08,33,044,42,13,51,064,49*69
$GNGGA,085150.00,5130.4122443,N,03120.6009769,E,4,15,0.7,141.280,M,,,0.83,0000*3
3
$GNGGK,085150.00,062518,5130.4122443,N,03120.6009769,E,3,15,1.6,EHT141.280,M*56
$GNGSA,A,3,02,06,12,14,19,24,25,29,31,,,,1.2,0.7,1.0*2B
$GNGSA,A,3,73,74,80,82,83,,,,,,,,1.2,0.7,1.0*27
$GPGSV,3,1,10,02,52,119,49,06,36,058,48,12,75,088,54,14,19,304,46*71
$GPGSV,3,2,10,19,17,057,34,24,31,177,46,25,56,293,54,29,26,235,33*73
$GPGSV,3,3,10,31,14,319,41,32,18,276,43,,,,,,,,*7D
$GLGSV,2,1,06,73,80,148,52,74,43,318,52,80,22,140,37,82,28,039,49*61
$GLGSV,2,2,06,83,81,078,50,84,35,208,33,,,,,,,,*6B
$GAGSV,1,1,03,11,69,117,49,12,29,048,44,24,21,129,,,,,*55
$BDGSV,1,1,04,02,15,120,,05,27,146,41,08,33,044,43,13,51,064,49*69
$GNGGA,085151.00,5130.4122465,N,03120.6009754,E,4,15,0.7,141.268,M,,,0.84,0000*3
9
$GNGGK,085151.00,062518,5130.4122465,N,03120.6009754,E,3,15,1.6,EHT141.268,M*5B
$GNGSA,A,3,02,06,12,14,19,24,25,29,31,,,,1.2,0.7,1.0*2B
$GNGSA,A,3,73,74,80,82,83,,,,,,,,1.2,0.7,1.0*27
$GPGSV,3,1,10,02,52,119,50,06,36,058,49,12,75,088,54,14,19,304,46*78
$GPGSV,3,2,10,19,17,057,33,24,31,177,47,25,56,293,55,29,26,235,33*74
$GPGSV,3,3,10,31,14,319,40,32,18,276,44,,,,,,,,*7B
$GLGSV,2,1,06,73,80,148,52,74,43,318,52,80,22,140,37,82,28,039,50*69
$GLGSV,2,2,06,83,81,078,50,84,35,208,33,,,,,,,,*6B
$GAGSV,1,1,03,11,69,117,49,12,29,048,44,24,21,129,,,,,*55
$BDGSV,1,1,04,02,15,120,,05,27,146,40,08,33,044,42,13,51,064,49*69
$GNGGA,085152.00,5130.4122464,N,03120.6009764,E,4,15,0.7,141.272,M,,,0.84,0000*3
3
$GNGGK,085152.00,062518,5130.4122464,N,03120.6009764,E,3,15,1.6,EHT141.272,M*51
$GNGSA,A,3,02,06,12,14,19,24,25,29,31,,,,1.2,0.7,1.0*2B
$GNGSA,A,3,73,74,80,82,83,,,,,,,,1.2,0.7,1.0*27
$GPGSV,3,1,10,02,52,119,50,06,36,058,50,12,75,088,54,14,19,304,46*70
$GPGSV,3,2,10,19,17,057,32,24,31,177,46,25,56,293,55,29,26,235,34*73
$GPGSV,3,3,10,31,14,319,39,32,18,276,45,,,,,,,,*74
$GLGSV,2,1,06,73,80,148,52,74,43,318,52,80,22,140,37,82,28,039,50*69
$GLGSV,2,2,06,83,81,078,50,84,35,208,35,,,,,,,,*6D
$GAGSV,1,1,03,11,69,117,49,12,29,048,44,24,21,129,,,,,*55
$BDGSV,1,1,04,02,15,120,,05,27,146,40,08,33,044,42,13,51,064,49*69
$GNGGA,085153.00,5130.4122445,N,03120.6009748,E,4,15,0.7,141.267,M,,,0.83,0000*3
C
$GNGGK,085153.00,062518,5130.4122445,N,03120.6009748,E,3,15,1.6,EHT141.267,M*59
$GNGSA,A,3,02,06,12,14,19,24,25,29,31,,,,1.2,0.7,1.0*2B
$GNGSA,A,3,73,74,80,82,83,,,,,,,,1.2,0.7,1.0*27
$GPGSV,3,1,10,02,52,119,50,06,36,058,50,12,75,088,54,14,19,304,46*70
$GPGSV,3,2,10,19,17,057,32,24,31,177,46,25,56,293,54,29,26,235,37*71
$GPGSV,3,3,10,31,14,319,39,32,18,276,44,,,,,,,,*75
$GLGSV,2,1,06,73,80,148,52,74,43,318,52,80,22,140,37,82,28,039,49*61
$GLGSV,2,2,06,83,81,078,51,84,35,208,36,,,,,,,,*6F
$GAGSV,1,1,03,11,69,117,49,12,29,048,43,24,21,129,,,,,*52
$BDGSV,1,1,04,02,15,120,,05,27,146,40,08,33,044,42,13,51,064,49*69
$GNGGA,085154.00,5130.4122451,N,03120.6009743,E,4,15,0.7,141.268,M,,,0.83,0000*3
A
$GNGGK,085154.00,062518,5130.4122451,N,03120.6009743,E,3,15,1.6,EHT141.268,M*5F
$GNGSA,A,3,02,06,12,14,19,24,25,29,31,,,,1.2,0.7,1.0*2B
$GNGSA,A,3,73,74,80,82,83,,,,,,,,1.2,0.7,1.0*27
$GPGSV,3,1,10,02,52,118,50,06,36,058,50,12,75,088,54,14,19,304,46*71
$GPGSV,3,2,10,19,17,057,33,24,31,177,46,25,56,293,55,29,26,235,36*70
$GPGSV,3,3,10,31,14,319,40,32,18,276,44,,,,,,,,*7B
$GLGSV,2,1,06,73,80,148,52,74,43,318,52,80,22,140,35,82,28,039,49*63
$GLGSV,2,2,06,83,81,078,51,84,35,208,35,,,,,,,,*6C
$GAGSV,1,1,03,11,69,117,49,12,29,048,43,24,21,129,,,,,*52
$BDGSV,1,1,04,02,15,120,,05,27,146,40,08,33,044,42,13,51,064,49*69
$GNGGA,085155.00,5130.4122456,N,03120.6009766,E,4,15,0.7,141.273,M,,,0.83,0000*3
1
$GNGGK,085155.00,062518,5130.4122456,N,03120.6009766,E,3,15,1.6,EHT141.273,M*54
$GNGSA,A,3,02,06,12,14,19,24,25,29,31,,,,1.2,0.7,1.0*2B
$GNGSA,A,3,73,74,80,82,83,,,,,,,,1.2,0.7,1.0*27
$GPGSV,3,1,10,02,52,118,50,06,36,058,49,12,75,088,54,14,19,304,46*79
$GPGSV,3,2,10,19,17,057,31,24,31,177,46,25,56,293,54,29,26,235,35*70
$GPGSV,3,3,10,31,14,319,40,32,18,276,44,,,,,,,,*7B
$GLGSV,2,1,06,73,80,148,52,74,43,318,52,80,22,140,37,82,28,039,50*69
$GLGSV,2,2,06,83,81,078,51,84,35,208,35,,,,,,,,*6C
$GAGSV,1,1,03,11,69,117,49,12,29,048,43,24,21,129,,,,,*52
$BDGSV,1,1,04,02,15,120,,05,27,146,40,08,33,044,42,13,51,064,49*69
$GNGGA,085156.00,5130.4122457,N,03120.6009778,E,4,15,0.7,141.265,M,,,0.84,0000*3
C
$GNGGK,085156.00,062518,5130.4122457,N,03120.6009778,E,3,15,1.6,EHT141.265,M*5E
$GNGSA,A,3,02,06,12,14,19,24,25,29,31,,,,1.2,0.7,1.0*2B
$GNGSA,A,3,73,74,80,82,83,,,,,,,,1.2,0.7,1.0*27
$GPGSV,3,1,10,02,52,118,49,06,36,058,50,12,75,088,54,14,19,304,45*7A
$GPGSV,3,2,10,19,17,057,31,24,31,177,46,25,56,293,54,29,26,235,35*70
$GPGSV,3,3,10,31,14,319,39,32,18,276,45,,,,,,,,*74
$GLGSV,2,1,06,73,80,148,52,74,43,318,52,80,22,140,37,82,28,039,50*69
$GLGSV,2,2,06,83,81,078,51,84,35,208,35,,,,,,,,*6C
$GAGSV,1,1,03,11,69,117,49,12,29,048,43,24,21,129,,,,,*52
$BDGSV,1,1,04,02,15,120,,05,27,146,40,08,33,044,41,13,51,064,49*6A
$GNGGA,085157.00,5130.4122467,N,03120.6009777,E,4,15,0.7,141.266,M,,,0.80,0000*3
6
$GNGGK,085157.00,062518,5130.4122467,N,03120.6009777,E,3,15,1.6,EHT141.266,M*50
$GNGSA,A,3,02,06,12,14,19,24,25,29,31,,,,1.2,0.7,1.0*2B
$GNGSA,A,3,73,74,80,82,83,,,,,,,,1.2,0.7,1.0*27
$GPGSV,3,1,10,02,52,118,50,06,36,058,50,12,75,088,54,14,19,304,45*72
$GPGSV,3,2,10,19,17,057,28,24,31,177,46,25,56,293,54,29,26,235,35*78
$GPGSV,3,3,10,31,14,319,38,32,18,276,46,,,,,,,,*76
$GLGSV,2,1,06,73,80,148,52,74,43,318,52,80,22,140,37,82,28,039,50*69
$GLGSV,2,2,06,83,81,078,51,84,35,208,35,,,,,,,,*6C
$GAGSV,1,1,03,11,69,117,49,12,29,048,43,24,21,129,,,,,*52
$BDGSV,1,1,04,02,15,120,,05,27,146,40,08,33,044,42,13,51,064,49*69
$GNGGA,085158.00,5130.4122494,N,03120.6009815,E,4,14,0.7,141.242,M,,,0.84,0000*3
D
$GNGGK,085158.00,062518,5130.4122494,N,03120.6009815,E,3,14,1.7,EHT141.242,M*5E
$GNGSA,A,3,02,06,12,14,24,25,29,31,,,,,1.3,0.7,1.1*23
$GNGSA,A,3,73,74,80,82,83,,,,,,,,1.3,0.7,1.1*27
$GPGSV,3,1,10,02,52,118,50,06,36,058,50,12,75,088,54,14,19,304,45*72
$GPGSV,3,2,10,19,17,057,28,24,31,177,46,25,56,293,55,29,26,235,37*7B
$GPGSV,3,3,10,31,14,319,38,32,18,276,46,,,,,,,,*76
$GLGSV,2,1,06,73,80,148,52,74,43,318,52,80,22,140,36,82,28,039,50*68
$GLGSV,2,2,06,83,81,078,51,84,35,208,34,,,,,,,,*6D
$GAGSV,1,1,03,11,69,117,49,12,29,048,43,24,21,129,,,,,*52
$BDGSV,1,1,04,02,15,120,,05,27,146,41,08,33,044,42,13,51,064,49*68
$GNGGA,085159.00,5130.4122493,N,03120.6009800,E,4,14,0.7,141.248,M,,,0.84,0000*3
5
$GNGGK,085159.00,062518,5130.4122493,N,03120.6009800,E,3,14,1.7,EHT141.248,M*56
$GNGSA,A,3,02,06,12,14,24,25,29,31,,,,,1.3,0.7,1.1*23
$GNGSA,A,3,73,74,80,82,83,,,,,,,,1.3,0.7,1.1*27
$GPGSV,3,1,10,02,52,118,50,06,36,058,50,12,75,088,54,14,19,304,45*72
$GPGSV,3,2,10,19,17,057,,24,31,177,46,25,56,293,55,29,26,235,38*7E
$GPGSV,3,3,10,31,14,318,38,32,18,276,45,,,,,,,,*74
$GLGSV,2,1,06,73,80,148,52,74,43,318,52,80,22,140,35,82,28,039,50*6B
$GLGSV,2,2,06,83,81,077,51,84,35,208,37,,,,,,,,*61
$GAGSV,1,1,03,11,69,117,49,12,29,048,43,24,21,129,,,,,*52
$BDGSV,1,1,04,02,15,120,,05,27,146,40,08,33,044,41,13,51,064,49*6A
$GNGGA,085200.00,5130.4122491,N,03120.6009821,E,4,14,0.7,141.248,M,,,0.84,0000*3
B
$GNGGK,085200.00,062518,5130.4122491,N,03120.6009821,E,3,14,1.7,EHT141.248,M*58
$GNGSA,A,3,02,06,12,14,24,25,29,31,,,,,1.3,0.7,1.1*23
$GNGSA,A,3,73,74,80,82,83,,,,,,,,1.3,0.7,1.1*27
$GPGSV,3,1,10,02,52,118,50,06,36,058,50,12,75,088,54,14,19,304,45*72
$GPGSV,3,2,10,19,17,057,31,24,31,177,46,25,56,293,55,29,26,235,36*72
$GPGSV,3,3,10,31,14,318,38,32,18,276,45,,,,,,,,*74
$GLGSV,2,1,06,73,80,148,52,74,43,318,52,80,22,140,36,82,28,039,50*68
$GLGSV,2,2,06,83,81,077,51,84,35,208,35,,,,,,,,*63
$GAGSV,1,1,03,11,69,117,49,12,29,048,43,24,21,129,,,,,*52
$BDGSV,1,1,04,02,15,120,,05,27,146,41,08,33,044,41,13,51,064,49*6B
$GNGGA,085201.00,5130.4122483,N,03120.6009835,E,4,14,0.7,141.250,M,,,0.84,0000*3
5
$GNGGK,085201.00,062518,5130.4122483,N,03120.6009835,E,3,14,1.7,EHT141.250,M*56
$GNGSA,A,3,02,06,12,14,24,25,29,31,,,,,1.3,0.7,1.1*23
$GNGSA,A,3,73,74,80,82,83,,,,,,,,1.3,0.7,1.1*27
$GPGSV,3,1,10,02,52,118,50,06,36,058,50,12,75,088,54,14,19,304,44*73
$GPGSV,3,2,10,19,17,057,31,24,31,177,46,25,56,293,54,29,26,235,39*7C
$GPGSV,3,3,10,31,14,318,38,32,18,276,45,,,,,,,,*74
$GLGSV,2,1,06,73,80,148,52,74,43,318,52,80,22,140,36,82,28,039,50*68
$GLGSV,2,2,06,83,81,077,50,84,35,208,34,,,,,,,,*63
$GAGSV,1,1,03,11,69,117,49,12,29,048,43,24,21,129,,,,,*52
$BDGSV,1,1,04,02,15,120,,05,27,146,40,08,33,044,41,13,51,064,49*6A
$GNGGA,085202.00,5130.4122486,N,03120.6009806,E,4,14,0.7,141.249,M,,,0.84,0000*3
B
$GNGGK,085202.00,062518,5130.4122486,N,03120.6009806,E,3,14,1.7,EHT141.249,M*58
$GNGSA,A,3,02,06,12,14,24,25,29,31,,,,,1.3,0.7,1.1*23
$GNGSA,A,3,73,74,80,82,83,,,,,,,,1.3,0.7,1.1*27
$GPGSV,3,1,10,02,52,118,49,06,36,058,50,12,75,088,54,14,19,304,44*7B
$GPGSV,3,2,10,19,17,057,31,24,31,177,46,25,56,293,55,29,26,235,41*72
$GPGSV,3,3,10,31,14,318,37,32,18,276,45,,,,,,,,*7B
$GLGSV,2,1,06,73,80,148,52,74,43,318,52,80,22,140,36,82,28,039,50*68
$GLGSV,2,2,06,83,81,077,50,84,35,208,35,,,,,,,,*62
$GAGSV,1,1,03,11,69,117,49,12,29,048,43,24,21,129,,,,,*52
$BDGSV,1,1,04,02,15,120,,05,27,146,41,08,33,044,42,13,51,064,49*68
$GNGGA,085203.00,5130.4122482,N,03120.6009827,E,4,14,0.7,141.246,M,,,0.84,0000*3
2
$GNGGK,085203.00,062518,5130.4122482,N,03120.6009827,E,3,14,1.7,EHT141.246,M*51
$GNGSA,A,3,02,06,12,14,24,25,29,31,,,,,1.3,0.7,1.1*23
$GNGSA,A,3,73,74,80,82,83,,,,,,,,1.3,0.7,1.1*27
$GPGSV,3,1,10,02,52,118,49,06,36,058,49,12,75,088,54,14,19,304,44*73
$GPGSV,3,2,10,19,17,057,33,24,31,177,46,25,56,293,55,29,26,235,39*7F
$GPGSV,3,3,10,31,14,318,39,32,18,276,45,,,,,,,,*75
$GLGSV,2,1,06,73,80,148,52,74,43,318,53,80,22,140,36,82,28,039,49*61
$GLGSV,2,2,06,83,81,077,51,84,35,208,36,,,,,,,,*60
$GAGSV,1,1,03,11,69,117,49,12,29,048,43,24,21,129,,,,,*52
$BDGSV,1,1,04,02,15,120,,05,27,146,40,08,33,044,42,13,51,064,49*69
$GNGGA,085204.00,5130.4122483,N,03120.6009811,E,4,14,0.7,141.251,M,,,0.82,0000*3
1
$GNGGK,085204.00,062518,5130.4122483,N,03120.6009811,E,3,14,1.7,EHT141.251,M*54
$GNGSA,A,3,02,06,12,14,24,25,29,31,,,,,1.3,0.7,1.1*23
$GNGSA,A,3,73,74,80,82,83,,,,,,,,1.3,0.7,1.1*27
$GPGSV,3,1,10,02,52,118,50,06,36,058,49,12,75,088,54,14,19,304,43*7C
$GPGSV,3,2,10,19,17,057,32,24,31,177,45,25,56,293,55,29,26,235,39*7D
$GPGSV,3,3,10,31,14,318,39,32,18,276,46,,,,,,,,*76
$GLGSV,2,1,06,73,80,148,52,74,43,318,53,80,21,140,36,82,28,039,49*62
$GLGSV,2,2,06,83,81,077,51,84,35,209,35,,,,,,,,*62
$GAGSV,1,1,03,11,69,116,49,12,29,048,43,24,21,129,,,,,*53
$BDGSV,1,1,04,02,15,120,,05,27,146,40,08,33,044,40,13,51,064,48*6A
$GNGGA,085205.00,5130.4122460,N,03120.6009834,E,4,14,0.7,141.249,M,,,0.84,0000*3
5
$GNGGK,085205.00,062518,5130.4122460,N,03120.6009834,E,3,14,1.7,EHT141.249,M*56
$GNGSA,A,3,02,06,12,14,24,25,29,31,,,,,1.3,0.7,1.1*23
$GNGSA,A,3,73,74,80,82,83,,,,,,,,1.3,0.7,1.1*27
$GPGSV,3,1,10,02,52,118,49,06,36,058,49,12,75,088,54,14,19,304,44*73
$GPGSV,3,2,10,19,17,057,32,24,31,177,45,25,56,293,55,29,26,235,38*7C
$GPGSV,3,3,10,31,14,318,39,32,18,276,45,,,,,,,,*75
$GLGSV,2,1,06,73,80,148,52,74,43,318,53,80,21,140,36,82,28,039,50*6A
$GLGSV,2,2,06,83,81,077,50,84,35,209,35,,,,,,,,*63
$GAGSV,1,1,03,11,69,116,48,12,29,048,43,24,21,129,,,,,*52
$BDGSV,1,1,04,02,15,120,,05,27,146,40,08,33,044,41,13,51,064,49*6A
$GNGGA,085206.00,5130.4122473,N,03120.6009820,E,4,14,0.7,141.248,M,,,0.84,0000*3
0
$GNGGK,085206.00,062518,5130.4122473,N,03120.6009820,E,3,14,1.7,EHT141.248,M*53
$GNGSA,A,3,02,06,12,14,24,25,29,31,,,,,1.3,0.7,1.1*23
$GNGSA,A,3,73,74,80,82,83,,,,,,,,1.3,0.7,1.1*27
$GPGSV,3,1,10,02,52,118,50,06,36,058,49,12,75,088,54,14,19,304,43*7C
$GPGSV,3,2,10,19,17,057,31,24,31,177,46,25,56,293,54,29,26,235,39*7C
$GPGSV,3,3,10,31,14,318,38,32,18,276,46,,,,,,,,*77
$GLGSV,2,1,06,73,80,148,52,74,43,318,53,80,21,140,36,82,28,039,50*6A
$GLGSV,2,2,06,83,81,077,50,84,35,209,34,,,,,,,,*62
$GAGSV,1,1,03,11,69,116,49,12,29,048,43,24,21,129,,,,,*53
$BDGSV,1,1,04,02,15,120,,05,27,146,40,08,33,044,42,13,51,064,48*68
$GNGGA,085207.00,5130.4122474,N,03120.6009836,E,4,14,0.7,141.244,M,,,0.80,0000*3
9
$GNGGK,085207.00,062518,5130.4122474,N,03120.6009836,E,3,14,1.7,EHT141.244,M*5E
$GNGSA,A,3,02,06,12,14,24,25,29,31,,,,,1.3,0.7,1.1*23
$GNGSA,A,3,73,74,80,82,83,,,,,,,,1.3,0.7,1.1*27
$GPGSV,3,1,10,02,52,118,50,06,36,058,50,12,75,088,54,14,19,304,43*74
$GPGSV,3,2,10,19,17,057,31,24,31,177,46,25,56,293,54,29,26,235,40*72
$GPGSV,3,3,10,31,14,318,38,32,18,276,47,,,,,,,,*76
$GLGSV,2,1,06,73,80,148,52,74,43,318,53,80,21,140,36,82,28,039,50*6A
$GLGSV,2,2,06,83,81,077,51,84,35,209,34,,,,,,,,*63
$GAGSV,1,1,03,11,69,116,48,12,29,048,43,24,21,129,,,,,*52
$BDGSV,1,1,04,02,15,120,,05,27,146,40,08,33,044,41,13,51,064,48*6B
$GNGGA,085208.00,5130.4122470,N,03120.6009828,E,4,14,0.7,141.247,M,,,0.84,0000*3
A
$GNGGK,085208.00,062518,5130.4122470,N,03120.6009828,E,3,14,1.7,EHT141.247,M*59
$GNGSA,A,3,02,06,12,14,24,25,29,31,,,,,1.3,0.7,1.1*23
$GNGSA,A,3,73,74,80,82,83,,,,,,,,1.3,0.7,1.1*27
$GPGSV,3,1,10,02,52,118,49,06,36,058,50,12,75,088,54,14,19,304,44*7B
$GPGSV,3,2,10,19,17,057,30,24,31,177,45,25,56,293,54,29,27,235,40*71
$GPGSV,3,3,10,31,14,318,39,32,18,276,47,,,,,,,,*77
$GLGSV,2,1,06,73,80,148,52,74,43,318,53,80,21,140,37,82,28,039,50*6B
$GLGSV,2,2,06,83,81,077,50,84,35,209,33,,,,,,,,*65
$GAGSV,1,1,03,11,69,116,49,12,29,048,43,24,21,129,,,,,*53
$BDGSV,1,1,04,02,15,120,,05,27,146,40,08,33,044,41,13,51,064,49*6A
$GNGGA,085209.00,5130.4122466,N,03120.6009827,E,4,14,0.7,141.246,M,,,0.84,0000*3
2
$GNGGK,085209.00,062518,5130.4122466,N,03120.6009827,E,3,14,1.7,EHT141.246,M*51
$GNGSA,A,3,02,06,12,14,24,25,29,31,,,,,1.3,0.7,1.1*23
$GNGSA,A,3,73,74,80,82,83,,,,,,,,1.3,0.7,1.1*27
$GPGSV,3,1,10,02,52,118,50,06,36,058,49,12,75,088,54,14,19,304,44*7B
$GPGSV,3,2,10,19,17,057,31,24,31,177,45,25,56,293,55,29,27,235,39*7F
$GPGSV,3,3,10,31,14,318,38,32,17,276,47,,,,,,,,*79
$GLGSV,2,1,06,73,80,148,52,74,43,318,53,80,21,140,37,82,28,039,50*6B
$GLGSV,2,2,06,83,81,077,51,84,35,209,33,,,,,,,,*64
$GAGSV,1,1,03,11,69,116,48,12,29,048,43,24,21,129,,,,,*52
$BDGSV,1,1,04,02,15,120,,05,27,146,40,08,33,044,41,13,51,064,48*6B
$GNGGA,085210.00,5130.4122452,N,03120.6009821,E,4,14,0.7,141.248,M,,,0.83,0000*3
2
$GNGGK,085210.00,062518,5130.4122452,N,03120.6009821,E,3,14,1.7,EHT141.248,M*56
$GNGSA,A,3,02,06,12,14,24,25,29,31,,,,,1.3,0.7,1.1*23
$GNGSA,A,3,73,74,80,82,83,,,,,,,,1.3,0.7,1.1*27
$GPGSV,3,1,10,02,52,118,50,06,36,058,49,12,75,088,54,14,19,304,44*7B
$GPGSV,3,2,10,19,17,057,31,24,31,177,45,25,56,293,55,29,27,235,40*71
$GPGSV,3,3,10,31,14,318,39,32,17,276,47,,,,,,,,*78
$GLGSV,2,1,06,73,80,148,52,74,43,318,53,80,21,140,38,82,28,039,50*64
$GLGSV,2,2,06,83,81,077,51,84,35,209,35,,,,,,,,*62
$GAGSV,1,1,03,11,69,116,49,12,29,048,43,24,21,129,,,,,*53
$BDGSV,1,1,04,02,15,120,,05,27,146,40,08,33,044,42,13,51,064,48*68
$GNGGA,085211.00,5130.4122473,N,03120.6009830,E,4,14,0.7,141.245,M,,,0.84,0000*3
A
$GNGGK,085211.00,062518,5130.4122473,N,03120.6009830,E,3,14,1.7,EHT141.245,M*59
$GNGSA,A,3,02,06,12,14,24,25,29,31,,,,,1.3,0.7,1.1*23
$GNGSA,A,3,73,74,80,82,83,,,,,,,,1.3,0.7,1.1*27
$GPGSV,3,1,10,02,52,118,50,06,36,058,50,12,75,088,54,14,19,304,44*73
$GPGSV,3,2,10,19,17,057,29,24,31,177,45,25,56,293,55,29,27,235,41*79
$GPGSV,3,3,10,31,14,318,40,32,17,276,47,,,,,,,,*76
$GLGSV,2,1,06,73,80,148,52,74,43,318,53,80,21,140,38,82,28,039,50*64
$GLGSV,2,2,06,83,81,077,51,84,35,209,35,,,,,,,,*62
$GAGSV,1,1,03,11,69,116,48,12,29,048,43,24,21,129,,,,,*52
$BDGSV,1,1,04,02,15,120,,05,27,146,40,08,33,044,42,13,51,064,48*68
$GNGGA,085212.00,5130.4122485,N,03120.6009840,E,4,14,0.7,141.243,M,,,0.84,0000*3
1
$GNGGK,085212.00,062518,5130.4122485,N,03120.6009840,E,3,14,1.7,EHT141.243,M*52
$GNGSA,A,3,02,06,12,14,24,25,29,31,,,,,1.3,0.7,1.1*23
$GNGSA,A,3,73,74,80,82,83,,,,,,,,1.3,0.7,1.1*27
$GPGSV,3,1,10,02,52,118,49,06,36,058,50,12,75,088,54,14,19,304,44*7B
$GPGSV,3,2,10,19,17,057,30,24,31,177,46,25,56,293,55,29,27,235,39*7D
$GPGSV,3,3,10,31,14,318,39,32,17,276,47,,,,,,,,*78
$GLGSV,2,1,06,73,80,148,52,74,43,318,53,80,21,140,38,82,28,039,50*64
$GLGSV,2,2,06,83,81,077,51,84,35,209,36,,,,,,,,*61
$GAGSV,1,1,03,11,69,116,48,12,29,048,43,24,21,129,,,,,*52
$BDGSV,1,1,04,02,15,120,,05,27,146,40,08,33,044,41,13,51,064,48*6B
$GNGGA,085213.00,5130.4122495,N,03120.6009831,E,4,14,0.7,141.243,M,,,0.84,0000*3
7
$GNGGK,085213.00,062518,5130.4122495,N,03120.6009831,E,3,14,1.7,EHT141.243,M*54
$GNGSA,A,3,02,06,12,14,24,25,29,31,,,,,1.3,0.7,1.1*23
$GNGSA,A,3,73,74,80,82,83,,,,,,,,1.3,0.7,1.1*27
$GPGSV,3,1,10,02,52,118,49,06,36,058,50,12,75,088,54,14,19,304,44*7B
$GPGSV,3,2,10,19,17,057,28,24,31,177,46,25,56,293,54,29,27,235,36*7A
$GPGSV,3,3,10,31,14,318,39,32,17,276,47,,,,,,,,*78
$GLGSV,2,1,06,73,80,148,52,74,43,318,54,80,21,140,39,82,28,039,50*62
$GLGSV,2,2,06,83,81,077,50,84,35,209,36,,,,,,,,*60
$GAGSV,1,1,03,11,69,116,48,12,29,048,43,24,21,129,,,,,*52
$BDGSV,1,1,04,02,15,120,,05,27,146,40,08,33,044,41,13,51,064,48*6B
$GNGGA,085214.00,5130.4122502,N,03120.6009835,E,4,14,0.7,141.248,M,,,0.83,0000*3
7
$GNGGK,085214.00,062518,5130.4122502,N,03120.6009835,E,3,14,1.7,EHT141.248,M*53
$GNGSA,A,3,02,06,12,14,24,25,29,31,,,,,1.3,0.7,1.1*23
$GNGSA,A,3,73,74,80,82,83,,,,,,,,1.3,0.7,1.1*27
$GPGSV,3,1,10,02,52,118,49,06,36,058,49,12,75,088,55,14,19,304,45*73
$GPGSV,3,2,10,19,17,057,29,24,31,177,45,25,56,293,54,29,27,235,37*79
$GPGSV,3,3,10,31,14,318,37,32,17,276,47,,,,,,,,*76
$GLGSV,2,1,06,73,80,148,52,74,44,318,54,80,21,140,39,82,28,039,50*65
$GLGSV,2,2,06,83,81,077,51,84,35,209,37,,,,,,,,*60
$GAGSV,1,1,03,11,69,116,49,12,29,048,43,24,21,129,,,,,*53
$BDGSV,1,1,04,02,15,120,,05,27,146,40,08,33,044,41,13,51,064,48*6B
$GNGGA,085215.00,5130.4122484,N,03120.6009840,E,4,14,0.7,141.248,M,,,0.84,0000*3
C
$GNGGK,085215.00,062518,5130.4122484,N,03120.6009840,E,3,14,1.7,EHT141.248,M*5F
$GNGSA,A,3,02,06,12,14,24,25,29,31,,,,,1.3,0.7,1.1*23
$GNGSA,A,3,73,74,80,82,83,,,,,,,,1.3,0.7,1.1*27
$GPGSV,3,1,10,02,52,118,49,06,36,058,49,12,75,088,55,14,19,304,44*72
$GPGSV,3,2,10,19,17,057,28,24,31,177,46,25,56,293,54,29,27,235,32*7E
$GPGSV,3,3,10,31,14,318,38,32,17,276,47,,,,,,,,*79
$GLGSV,2,1,06,73,80,148,52,74,44,318,53,80,21,140,39,82,28,039,50*62
$GLGSV,2,2,06,83,81,077,50,84,35,209,37,,,,,,,,*61
$GAGSV,1,1,03,11,69,116,48,12,29,048,43,24,21,129,,,,,*52
$BDGSV,1,1,04,02,15,120,,05,27,146,40,08,33,044,41,13,51,064,48*6B
$GNGGA,085216.00,5130.4122480,N,03120.6009829,E,4,14,0.7,141.255,M,,,0.84,0000*3
8
$GNGGK,085216.00,062518,5130.4122480,N,03120.6009829,E,3,14,1.7,EHT141.255,M*5B
$GNGSA,A,3,02,06,12,14,24,25,29,31,,,,,1.3,0.7,1.1*23
$GNGSA,A,3,73,74,80,82,83,,,,,,,,1.3,0.7,1.1*27
$GPGSV,3,1,10,02,52,118,50,06,36,058,50,12,75,088,55,14,19,304,45*73
$GPGSV,3,2,10,19,17,057,30,24,31,177,46,25,56,293,55,29,27,235,36*72
$GPGSV,3,3,10,31,14,318,38,32,17,276,47,,,,,,,,*79
$GLGSV,2,1,06,73,80,148,52,74,44,318,53,80,21,140,38,82,28,039,50*63
$GLGSV,2,2,06,83,81,077,50,84,35,209,35,,,,,,,,*63
$GAGSV,1,1,03,11,69,116,48,12,29,048,42,24,21,129,,,,,*53
$BDGSV,1,1,04,02,15,120,,05,27,146,40,08,33,044,41,13,51,064,48*6B
$GNGGA,085217.00,5130.4122487,N,03120.6009861,E,4,14,0.7,141.258,M,,,0.80,0000*3
B
$GNGGK,085217.00,062518,5130.4122487,N,03120.6009861,E,3,14,1.7,EHT141.258,M*5C
$GNGSA,A,3,02,06,12,14,24,25,29,31,,,,,1.3,0.7,1.1*23
$GNGSA,A,3,73,74,80,82,83,,,,,,,,1.3,0.7,1.1*27
$GPGSV,3,1,10,02,52,118,50,06,36,058,50,12,75,088,55,14,19,304,45*73
$GPGSV,3,2,10,19,17,057,34,24,31,177,45,25,56,293,55,29,27,235,39*7A
$GPGSV,3,3,10,31,14,318,39,32,17,276,47,,,,,,,,*78
$GLGSV,2,1,06,73,80,148,52,74,44,318,53,80,21,140,38,82,28,039,50*63
$GLGSV,2,2,06,83,81,077,50,84,35,209,36,,,,,,,,*60
$GAGSV,1,1,03,11,69,116,48,12,29,048,42,24,21,129,,,,,*53
$BDGSV,1,1,04,02,15,120,,05,27,146,40,08,33,044,42,13,51,064,48*68
$GNGGA,085218.00,5130.4122494,N,03120.6009845,E,4,14,0.7,141.249,M,,,0.84,0000*3
4
$GNGGK,085218.00,062518,5130.4122494,N,03120.6009845,E,3,14,1.7,EHT141.249,M*57
$GNGSA,A,3,02,06,12,14,24,25,29,31,,,,,1.3,0.7,1.1*23
$GNGSA,A,3,73,74,80,82,83,,,,,,,,1.3,0.7,1.1*27
$GPGSV,3,1,10,02,52,118,50,06,36,058,50,12,75,088,55,14,19,304,45*73
$GPGSV,3,2,10,19,17,057,33,24,31,177,45,25,56,293,54,29,27,235,38*7D
$GPGSV,3,3,10,31,14,318,39,32,17,276,47,,,,,,,,*78
$GLGSV,2,1,06,73,80,148,52,74,44,318,53,80,21,140,38,82,28,039,50*63
$GLGSV,2,2,06,83,81,077,50,84,35,209,35,,,,,,,,*63
$GAGSV,1,1,03,11,69,116,48,12,29,048,42,24,21,129,,,,,*53
$BDGSV,1,1,04,02,15,120,,05,27,146,40,08,33,044,41,13,51,064,48*6B
$GNGGA,085219.00,5130.4122485,N,03120.6009837,E,4,14,0.7,141.252,M,,,0.84,0000*3
A
$GNGGK,085219.00,062518,5130.4122485,N,03120.6009837,E,3,14,1.7,EHT141.252,M*59
$GNGSA,A,3,02,06,12,14,24,25,29,31,,,,,1.3,0.7,1.1*23
$GNGSA,A,3,73,74,80,82,83,,,,,,,,1.3,0.7,1.1*27
$GPGSV,3,1,10,02,52,118,50,06,36,058,50,12,75,088,55,14,19,304,45*73
$GPGSV,3,2,10,19,17,057,32,24,31,177,45,25,56,293,54,29,27,235,35*71
$GPGSV,3,3,10,31,15,318,38,32,17,276,47,,,,,,,,*78
$GLGSV,2,1,06,73,80,148,52,74,44,318,53,80,21,140,38,82,28,039,50*63
$GLGSV,2,2,06,83,81,076,50,84,35,209,36,,,,,,,,*61
$GAGSV,1,1,03,11,69,116,48,12,29,048,42,24,21,129,,,,,*53
$BDGSV,1,1,04,02,15,120,,05,27,146,40,08,33,044,42,13,51,064,48*68
$GNGGA,085220.00,5130.4122497,N,03120.6009856,E,4,14,0.7,141.256,M,,,0.84,0000*3
0
$GNGGK,085220.00,062518,5130.4122497,N,03120.6009856,E,3,14,1.7,EHT141.256,M*53
$GNGSA,A,3,02,06,12,14,24,25,29,31,,,,,1.3,0.7,1.1*23
$GNGSA,A,3,73,74,80,82,83,,,,,,,,1.3,0.7,1.1*27
$GPGSV,3,1,10,02,52,118,50,06,36,058,50,12,75,088,55,14,19,304,46*70
$GPGSV,3,2,10,19,17,057,31,24,31,177,45,25,56,293,54,29,27,235,36*71
$GPGSV,3,3,10,31,15,318,39,32,17,276,47,,,,,,,,*79
$GLGSV,2,1,06,73,80,148,52,74,44,318,53,80,21,140,38,82,28,039,50*63
$GLGSV,2,2,06,83,81,076,50,84,35,209,36,,,,,,,,*61
$GAGSV,1,1,03,11,69,116,48,12,29,048,42,24,21,129,,,,,*53
$BDGSV,1,1,04,02,15,120,,05,27,146,40,08,33,044,42,13,51,064,48*68
$GNGGA,085221.00,5130.4122465,N,03120.6009799,E,4,14,0.7,141.248,M,,,0.84,0000*3
F
$GNGGK,085221.00,062518,5130.4122465,N,03120.6009799,E,3,14,1.7,EHT141.248,M*5C
$GNGSA,A,3,02,06,12,14,24,25,29,31,,,,,1.3,0.7,1.1*23
$GNGSA,A,3,73,74,80,82,83,,,,,,,,1.3,0.7,1.1*27
$GPGSV,3,1,10,02,52,118,50,06,36,058,49,12,75,088,55,14,19,304,46*78
$GPGSV,3,2,10,19,17,057,31,24,31,177,45,25,56,293,54,29,27,235,32*75
$GPGSV,3,3,10,31,15,318,39,32,17,276,46,,,,,,,,*78
$GLGSV,2,1,06,73,80,148,52,74,44,318,53,80,21,140,39,82,28,039,50*62
$GLGSV,2,2,06,83,81,076,50,84,35,209,37,,,,,,,,*60
$GAGSV,1,1,03,11,69,116,48,12,29,048,43,24,21,129,,,,,*52
$BDGSV,1,1,04,02,15,120,,05,27,146,39,08,33,044,42,13,51,064,48*66
$GNGGA,085222.00,5130.4122495,N,03120.6009823,E,4,14,0.7,141.248,M,,,0.84,0000*3
D
$GNGGK,085222.00,062518,5130.4122495,N,03120.6009823,E,3,14,1.7,EHT141.248,M*5E
$GNGSA,A,3,02,06,12,14,24,25,29,31,,,,,1.3,0.7,1.1*23
$GNGSA,A,3,73,74,80,82,83,,,,,,,,1.3,0.7,1.1*27
$GPGSV,3,1,10,02,52,118,50,06,36,058,49,12,75,088,55,14,19,304,45*7B
$GPGSV,3,2,10,19,17,057,33,24,31,177,45,25,56,293,54,29,27,235,37*72
$GPGSV,3,3,10,31,15,318,39,32,17,276,45,,,,,,,,*7B
$GLGSV,2,1,06,73,80,148,52,74,44,318,53,80,21,140,39,82,28,039,50*62
$GLGSV,2,2,06,83,81,076,51,84,35,209,37,,,,,,,,*61
$GAGSV,1,1,03,11,69,116,48,12,29,048,43,24,21,129,,,,,*52
$BDGSV,1,1,04,02,15,120,,05,27,146,39,08,33,044,42,13,51,064,48*66
$GNGGA,085223.00,5130.4122509,N,03120.6009847,E,4,14,0.7,141.255,M,,,0.84,0000*3
6
$GNGGK,085223.00,062518,5130.4122509,N,03120.6009847,E,3,14,1.7,EHT141.255,M*55
$GNGSA,A,3,02,06,12,14,24,25,29,31,,,,,1.3,0.7,1.1*23
$GNGSA,A,3,73,74,80,82,83,,,,,,,,1.3,0.7,1.1*27
$GPGSV,3,1,10,02,52,118,50,06,36,058,49,12,75,088,55,14,19,304,45*7B
$GPGSV,3,2,10,19,17,057,32,24,31,177,45,25,56,293,54,29,27,235,36*72
$GPGSV,3,3,10,31,15,318,40,32,17,276,45,,,,,,,,*75
$GLGSV,2,1,06,73,80,148,52,74,44,318,53,80,21,140,38,82,28,039,50*63
$GLGSV,2,2,06,83,81,076,51,84,35,209,37,,,,,,,,*61
$GAGSV,1,1,03,11,69,116,48,12,29,048,43,24,21,129,,,,,*52
$BDGSV,1,1,04,02,15,120,,05,27,146,40,08,33,044,42,13,51,064,48*68
$GNGGA,085224.00,5130.4122522,N,03120.6009880,E,4,14,0.7,141.257,M,,,0.83,0000*3
6
$GNGGK,085224.00,062518,5130.4122522,N,03120.6009880,E,3,14,1.7,EHT141.257,M*52
$GNGSA,A,3,02,06,12,14,24,25,29,31,,,,,1.3,0.7,1.1*23
$GNGSA,A,3,73,74,80,82,83,,,,,,,,1.3,0.7,1.1*27
$GPGSV,3,1,10,02,52,118,50,06,36,058,49,12,75,088,55,14,19,304,46*78
$GPGSV,3,2,10,19,17,057,32,24,31,177,45,25,57,293,54,29,27,235,33*76
$GPGSV,3,3,10,31,15,318,39,32,17,276,44,,,,,,,,*7A
$GLGSV,2,1,06,73,80,148,52,74,44,318,53,80,21,140,38,82,28,039,49*6B
$GLGSV,2,2,06,83,81,076,50,84,35,209,36,,,,,,,,*61
$GAGSV,1,1,03,11,69,116,48,12,29,048,43,24,21,129,,,,,*52
$BDGSV,1,1,04,02,15,120,,05,27,146,40,08,33,044,42,13,51,064,48*68
$GNGGA,085225.00,5130.4122522,N,03120.6009844,E,4,14,0.7,141.262,M,,,0.83,0000*3
9
$GNGGK,085225.00,062518,5130.4122522,N,03120.6009844,E,3,14,1.7,EHT141.262,M*5D
$GNGSA,A,3,02,06,12,14,24,25,29,31,,,,,1.3,0.7,1.1*23
$GNGSA,A,3,73,74,80,82,83,,,,,,,,1.3,0.7,1.1*27
$GPGSV,3,1,10,02,52,118,50,06,36,058,49,12,75,088,54,14,19,304,46*79
$GPGSV,3,2,10,19,17,057,33,24,31,177,44,25,57,293,54,29,27,235,33*76
$GPGSV,3,3,10,31,15,318,40,32,17,276,45,,,,,,,,*75
$GLGSV,2,1,06,73,80,148,52,74,44,318,53,80,21,140,38,82,28,039,50*63
$GLGSV,2,2,06,83,81,076,50,84,35,209,36,,,,,,,,*61
$GAGSV,1,1,03,11,69,116,49,12,29,048,43,24,21,129,,,,,*53
$BDGSV,1,1,04,02,15,120,,05,27,146,39,08,33,044,42,13,51,064,48*66
$GNGGA,085226.00,5130.4122482,N,03120.6009810,E,4,15,0.7,141.273,M,,,0.84,0000*3
6
$GNGGK,085226.00,062518,5130.4122482,N,03120.6009810,E,3,15,1.6,EHT141.273,M*54
$GNGSA,A,3,02,06,12,14,19,24,25,29,31,,,,1.2,0.7,1.0*2B
$GNGSA,A,3,73,74,80,82,83,,,,,,,,1.2,0.7,1.0*27
$GPGSV,3,1,10,02,52,118,50,06,36,058,50,12,75,088,54,14,19,304,45*72
$GPGSV,3,2,10,19,17,057,33,24,31,177,45,25,57,293,54,29,27,235,32*76
$GPGSV,3,3,10,31,15,318,40,32,17,276,46,,,,,,,,*76
$GLGSV,2,1,06,73,80,148,52,74,44,318,53,80,21,140,36,82,28,039,51*6C
$GLGSV,2,2,06,83,81,076,50,84,35,209,36,,,,,,,,*61
$GAGSV,1,1,03,11,69,116,49,12,29,048,43,24,21,129,,,,,*53
$BDGSV,1,1,04,02,15,120,,05,27,146,40,08,33,044,42,13,51,064,49*69
$GNGGA,085227.00,5130.4122491,N,03120.6009842,E,4,15,0.7,141.272,M,,,0.80,0000*3
7
$GNGGK,085227.00,062518,5130.4122491,N,03120.6009842,E,3,15,1.6,EHT141.272,M*51
$GNGSA,A,3,02,06,12,14,19,24,25,29,31,,,,1.2,0.7,1.0*2B
$GNGSA,A,3,73,74,80,82,83,,,,,,,,1.2,0.7,1.0*27
$GPGSV,3,1,10,02,52,118,50,06,36,058,50,12,75,088,54,14,19,304,46*71
$GPGSV,3,2,10,19,17,057,32,24,31,177,45,25,57,293,54,29,27,235,34*71
$GPGSV,3,3,10,31,15,318,41,32,17,276,45,,,,,,,,*74
$GLGSV,2,1,06,73,80,148,51,74,44,318,54,80,21,140,35,82,28,039,50*6A
$GLGSV,2,2,06,83,81,076,50,84,35,209,34,,,,,,,,*63
$GAGSV,1,1,03,11,69,116,49,12,29,048,43,24,21,129,,,,,*53
$BDGSV,1,1,04,02,15,120,,05,27,146,39,08,33,044,43,13,51,064,48*67
$GNGGA,085228.00,5130.4122471,N,03120.6009820,E,4,15,0.7,141.268,M,,,0.83,0000*3
A
$GNGGK,085228.00,062518,5130.4122471,N,03120.6009820,E,3,15,1.6,EHT141.268,M*5F
$GNGSA,A,3,02,06,12,14,19,24,25,29,31,,,,1.2,0.7,1.0*2B
$GNGSA,A,3,73,74,80,82,83,,,,,,,,1.2,0.7,1.0*27
$GPGSV,3,1,10,02,52,118,50,06,36,058,50,12,75,088,55,14,19,304,46*70
$GPGSV,3,2,10,19,17,057,30,24,31,177,44,25,57,293,54,29,27,235,33*75
$GPGSV,3,3,10,31,15,318,39,32,17,276,45,,,,,,,,*7B
$GLGSV,2,1,06,73,80,148,51,74,44,318,54,80,21,140,36,82,28,039,51*68
$GLGSV,2,2,06,83,81,076,50,84,35,209,34,,,,,,,,*63
$GAGSV,1,1,03,11,69,116,49,12,29,048,43,24,21,129,,,,,*53
$BDGSV,1,1,04,02,15,120,,05,27,146,40,08,33,044,42,13,51,064,48*68
$GNGGA,085229.00,5130.4122461,N,03120.6009808,E,4,15,0.7,141.270,M,,,0.83,0000*3
9
$GNGGK,085229.00,062518,5130.4122461,N,03120.6009808,E,3,15,1.6,EHT141.270,M*5C
$GNGSA,A,3,02,06,12,14,19,24,25,29,31,,,,1.2,0.7,1.0*2B
$GNGSA,A,3,73,74,80,82,83,,,,,,,,1.2,0.7,1.0*27
$GPGSV,3,1,10,02,52,118,50,06,36,058,49,12,75,088,55,14,19,304,45*7B
$GPGSV,3,2,10,19,17,057,31,24,31,177,45,25,57,293,54,29,27,235,32*74
$GPGSV,3,3,10,31,15,318,38,32,17,276,45,,,,,,,,*7A
$GLGSV,2,1,06,73,80,148,52,74,44,318,54,80,21,140,36,82,28,039,50*6A
$GLGSV,2,2,06,83,80,076,50,84,35,209,35,,,,,,,,*63
$GAGSV,1,1,03,11,69,116,49,12,29,048,43,24,21,129,,,,,*53
$BDGSV,1,1,04,02,15,120,,05,27,146,40,08,33,044,42,13,51,064,48*68
$GNGGA,085230.00,5130.4122424,N,03120.6009790,E,4,15,0.7,141.263,M,,,0.83,0000*3
C
$GNGGK,085230.00,062518,5130.4122424,N,03120.6009790,E,3,15,1.6,EHT141.263,M*59
$GNGSA,A,3,02,06,12,14,19,24,25,29,31,,,,1.2,0.7,1.0*2B
$GNGSA,A,3,73,74,80,82,83,,,,,,,,1.2,0.7,1.0*27
$GPGSV,3,1,10,02,52,118,50,06,36,058,50,12,75,088,55,14,19,304,46*70
$GPGSV,3,2,10,19,17,057,32,24,31,177,44,25,57,293,54,29,27,235,34*70
$GPGSV,3,3,10,31,15,318,37,32,17,276,45,,,,,,,,*75
$GLGSV,2,1,06,73,80,148,51,74,44,318,53,80,21,140,38,82,28,039,50*60
$GLGSV,2,2,06,83,80,076,51,84,35,209,32,,,,,,,,*65
$GAGSV,1,1,03,11,69,116,49,12,29,048,43,24,21,129,,,,,*53
$BDGSV,1,1,04,02,15,120,,05,27,146,40,08,33,044,42,13,51,064,49*69
$GNGGA,085231.00,5130.4122434,N,03120.6009819,E,4,15,0.7,141.265,M,,,0.84,0000*3
3
$GNGGK,085231.00,062518,5130.4122434,N,03120.6009819,E,3,15,1.6,EHT141.265,M*51
$GNGSA,A,3,02,06,12,14,19,24,25,29,31,,,,1.2,0.7,1.0*2B
$GNGSA,A,3,73,74,80,82,83,,,,,,,,1.2,0.7,1.0*27
$GPGSV,3,1,10,02,52,118,50,06,36,058,49,12,75,088,55,14,19,304,46*78
$GPGSV,3,2,10,19,17,057,31,24,31,177,44,25,57,293,54,29,27,235,31*76
$GPGSV,3,3,10,31,15,318,38,32,17,276,46,,,,,,,,*79
$GLGSV,2,1,06,73,80,148,51,74,44,318,53,80,21,140,38,82,28,039,50*60
$GLGSV,2,2,06,83,80,076,51,84,35,209,35,,,,,,,,*62
$GAGSV,1,1,03,11,69,116,49,12,29,048,43,24,21,129,,,,,*53
$BDGSV,1,1,04,02,15,120,,05,27,146,40,08,33,044,42,13,51,064,48*68
56


